{
   "type": "FeatureCollection",
   "features": [
  {
    "type": "Feature",
    "geometry": {
       "type": "Point",
       "coordinates":  [ -122.33287,47.601058 ]
    },
    "properties": {
    "FIELD1":0,
    "state":"Washington",
    "city":"Seattle",
    "year":1965,
    "type":"[NULL]",
    "name":"Atlas Baths",
    "address":"118  Occidental S",
    "unit":"",
    "point":"1",
    "temp":"0",
    "loc":"0",
    "popular":"0",
    "byob":"0",
    "cruisy":"0",
    "c":"0",
    "d":"0",
    "e":"0",
    "ffa":"0",
    "g":"0",
    "h":"0",
    "hip":"0",
    "hot":"0",
    "m":"0",
    "mcc":"0",
    "p":"0",
    "pe":"0",
    "r":"0",
    "rt":"0",
    "s":"0",
    "sm":"0",
    "w":"0",
    "yc":"0",
    "loc_notes":"",
    "temp_notes":"",
    "notes":""
    }
  },
  {
    "type": "Feature",
    "geometry": {
       "type": "Point",
       "coordinates":  [ -122.331956,47.60103 ]
    },
    "properties": {
    "FIELD1":1,
    "state":"Washington",
    "city":"Seattle",
    "year":1965,
    "type":"[NULL]",
    "name":"Casino",
    "address":"172 S Washington",
    "unit":"",
    "point":"1",
    "temp":"1",
    "loc":"0",
    "popular":"1",
    "byob":"0",
    "cruisy":"0",
    "c":"0",
    "d":"0",
    "e":"0",
    "ffa":"0",
    "g":"0",
    "h":"0",
    "hip":"0",
    "hot":"0",
    "m":"0",
    "mcc":"0",
    "p":"0",
    "pe":"0",
    "r":"0",
    "rt":"0",
    "s":"0",
    "sm":"0",
    "w":"0",
    "yc":"0",
    "loc_notes":"2nd and Yesler; AKA The Dance or Mrs. P's; admission; byob",
    "temp_notes":"Popular after hours on Friday and Saturday",
    "notes":""
    }
  },
  {
    "type": "Feature",
    "geometry": {
       "type": "Point",
       "coordinates":  [ -122.347923,47.614201 ]
    },
    "properties": {
    "FIELD1":2,
    "state":"Washington",
    "city":"Seattle",
    "year":1965,
    "type":"[NULL]",
    "name":"Dave's Baths",
    "address":"2402 1st Ave",
    "unit":"",
    "point":"1",
    "temp":"0",
    "loc":"0",
    "popular":"0",
    "byob":"0",
    "cruisy":"0",
    "c":"0",
    "d":"0",
    "e":"0",
    "ffa":"0",
    "g":"0",
    "h":"0",
    "hip":"0",
    "hot":"0",
    "m":"0",
    "mcc":"0",
    "p":"0",
    "pe":"0",
    "r":"0",
    "rt":"0",
    "s":"0",
    "sm":"0",
    "w":"0",
    "yc":"0",
    "loc_notes":"",
    "temp_notes":"",
    "notes":""
    }
  },
  {
    "type": "Feature",
    "geometry": {
       "type": "Point",
       "coordinates":  [ -122.332163,47.601925 ]
    },
    "properties": {
    "FIELD1":3,
    "state":"Washington",
    "city":"Seattle",
    "year":1965,
    "type":"[NULL]",
    "name":"Double Header",
    "address":"407 2nd Ave",
    "unit":"",
    "point":"1",
    "temp":"0",
    "loc":"0",
    "popular":"0",
    "byob":"0",
    "cruisy":"0",
    "c":"0",
    "d":"0",
    "e":"0",
    "ffa":"0",
    "g":"0",
    "h":"0",
    "hip":"0",
    "hot":"0",
    "m":"0",
    "mcc":"0",
    "p":"0",
    "pe":"0",
    "r":"0",
    "rt":"0",
    "s":"0",
    "sm":"0",
    "w":"0",
    "yc":"0",
    "loc_notes":"",
    "temp_notes":"",
    "notes":""
    }
  },
  {
    "type": "Feature",
    "geometry": {
       "type": "Point",
       "coordinates":  [ -122.331955,47.600543 ]
    },
    "properties": {
    "FIELD1":4,
    "state":"Washington",
    "city":"Seattle",
    "year":1965,
    "type":"[NULL]",
    "name":"Golden Horseshoe",
    "address":"207 2nd Ave S",
    "unit":"",
    "point":"1",
    "temp":"0",
    "loc":"0",
    "popular":"0",
    "byob":"0",
    "cruisy":"0",
    "c":"0",
    "d":"1",
    "e":"0",
    "ffa":"0",
    "g":"0",
    "h":"0",
    "hip":"0",
    "hot":"0",
    "m":"0",
    "mcc":"0",
    "p":"0",
    "pe":"0",
    "r":"0",
    "rt":"0",
    "s":"0",
    "sm":"0",
    "w":"0",
    "yc":"0",
    "loc_notes":"",
    "temp_notes":"",
    "notes":""
    }
  },
  {
    "type": "Feature",
    "geometry": {
       "type": "Point",
       "coordinates":  [ -122.328519,47.613645 ]
    },
    "properties": {
    "FIELD1":5,
    "state":"Washington",
    "city":"Seattle",
    "year":1965,
    "type":"[NULL]",
    "name":"Lamplighter",
    "address":"817 Pike St",
    "unit":"",
    "point":"1",
    "temp":"0",
    "loc":"0",
    "popular":"0",
    "byob":"0",
    "cruisy":"0",
    "c":"0",
    "d":"0",
    "e":"0",
    "ffa":"0",
    "g":"0",
    "h":"0",
    "hip":"0",
    "hot":"0",
    "m":"0",
    "mcc":"0",
    "p":"0",
    "pe":"0",
    "r":"0",
    "rt":"0",
    "s":"0",
    "sm":"0",
    "w":"0",
    "yc":"0",
    "loc_notes":"Pike St between 8th and 9th",
    "temp_notes":"",
    "notes":""
    }
  },
  {
    "type": "Feature",
    "geometry": {
       "type": "Point",
       "coordinates":  [ -122.332566,47.600735 ]
    },
    "properties": {
    "FIELD1":6,
    "state":"Washington",
    "city":"Seattle",
    "year":1965,
    "type":"[NULL]",
    "name":"LUCKYTAVERN",
    "address":"159 S Washington St",
    "unit":"",
    "point":"1",
    "temp":"0",
    "loc":"0",
    "popular":"0",
    "byob":"0",
    "cruisy":"0",
    "c":"0",
    "d":"0",
    "e":"0",
    "ffa":"0",
    "g":"0",
    "h":"0",
    "hip":"0",
    "hot":"0",
    "m":"0",
    "mcc":"0",
    "p":"0",
    "pe":"0",
    "r":"0",
    "rt":"0",
    "s":"0",
    "sm":"0",
    "w":"0",
    "yc":"0",
    "loc_notes":"",
    "temp_notes":"",
    "notes":""
    }
  },
  {
    "type": "Feature",
    "geometry": {
       "type": "Point",
       "coordinates":  [ -122.360602,47.627568 ]
    },
    "properties": {
    "FIELD1":7,
    "state":"Washington",
    "city":"Seattle",
    "year":1965,
    "type":"[NULL]",
    "name":"Madison",
    "address":"922 3rd Ave",
    "unit":"",
    "point":"1",
    "temp":"0",
    "loc":"0",
    "popular":"1",
    "byob":"0",
    "cruisy":"0",
    "c":"0",
    "d":"1",
    "e":"0",
    "ffa":"0",
    "g":"1",
    "h":"0",
    "hip":"0",
    "hot":"0",
    "m":"0",
    "mcc":"0",
    "p":"0",
    "pe":"0",
    "r":"0",
    "rt":"0",
    "s":"0",
    "sm":"0",
    "w":"0",
    "yc":"0",
    "loc_notes":"",
    "temp_notes":"",
    "notes":""
    }
  },
  {
    "type": "Feature",
    "geometry": {
       "type": "Point",
       "coordinates":  [ -122.331269,47.601605 ]
    },
    "properties": {
    "FIELD1":8,
    "state":"Washington",
    "city":"Seattle",
    "year":1965,
    "type":"[NULL]",
    "name":"Mocambo",
    "address":"203 Yesler",
    "unit":"",
    "point":"1",
    "temp":"0",
    "loc":"0",
    "popular":"1",
    "byob":"0",
    "cruisy":"0",
    "c":"0",
    "d":"0",
    "e":"0",
    "ffa":"0",
    "g":"0",
    "h":"0",
    "hip":"0",
    "hot":"0",
    "m":"0",
    "mcc":"0",
    "p":"0",
    "pe":"0",
    "r":"0",
    "rt":"0",
    "s":"0",
    "sm":"0",
    "w":"0",
    "yc":"0",
    "loc_notes":"Only liquor bar listed",
    "temp_notes":"",
    "notes":""
    }
  },
  {
    "type": "Feature",
    "geometry": {
       "type": "Point",
       "coordinates":  [ -122.331921,47.612032 ]
    },
    "properties": {
    "FIELD1":9,
    "state":"Washington",
    "city":"Seattle",
    "year":1965,
    "type":"[NULL]",
    "name":"Pike Street Tavern",
    "address":"815  Pike St",
    "unit":"",
    "point":"1",
    "temp":"0",
    "loc":"0",
    "popular":"0",
    "byob":"0",
    "cruisy":"0",
    "c":"0",
    "d":"0",
    "e":"0",
    "ffa":"0",
    "g":"0",
    "h":"0",
    "hip":"0",
    "hot":"0",
    "m":"0",
    "mcc":"0",
    "p":"0",
    "pe":"0",
    "r":"0",
    "rt":"0",
    "s":"0",
    "sm":"0",
    "w":"0",
    "yc":"0",
    "loc_notes":"",
    "temp_notes":"",
    "notes":""
    }
  },
  {
    "type": "Feature",
    "geometry": {
       "type": "Point",
       "coordinates":  [ -122.33409,47.60186 ]
    },
    "properties": {
    "FIELD1":10,
    "state":"Washington",
    "city":"Seattle",
    "year":1965,
    "type":"[NULL]",
    "name":"Six-Fourteen",
    "address":"614 1st St",
    "unit":"",
    "point":"1",
    "temp":"0",
    "loc":"0",
    "popular":"1",
    "byob":"0",
    "cruisy":"0",
    "c":"0",
    "d":"1",
    "e":"0",
    "ffa":"0",
    "g":"0",
    "h":"0",
    "hip":"0",
    "hot":"0",
    "m":"0",
    "mcc":"0",
    "p":"0",
    "pe":"0",
    "r":"0",
    "rt":"0",
    "s":"0",
    "sm":"0",
    "w":"0",
    "yc":"0",
    "loc_notes":"",
    "temp_notes":"",
    "notes":""
    }
  },
  {
    "type": "Feature",
    "geometry": {
       "type": "Point",
       "coordinates":  [ -122.328666,47.613584 ]
    },
    "properties": {
    "FIELD1":11,
    "state":"Washington",
    "city":"Seattle",
    "year":1965,
    "type":"[NULL]",
    "name":"Spag's",
    "address":"924 Pine St",
    "unit":"",
    "point":"1",
    "temp":"0",
    "loc":"0",
    "popular":"0",
    "byob":"0",
    "cruisy":"0",
    "c":"0",
    "d":"0",
    "e":"0",
    "ffa":"0",
    "g":"0",
    "h":"0",
    "hip":"0",
    "hot":"0",
    "m":"0",
    "mcc":"0",
    "p":"0",
    "pe":"0",
    "r":"0",
    "rt":"0",
    "s":"0",
    "sm":"0",
    "w":"0",
    "yc":"0",
    "loc_notes":"Pine and Terry",
    "temp_notes":"",
    "notes":""
    }
  },
  {
    "type": "Feature",
    "geometry": {
       "type": "Point",
       "coordinates":  [ -122.339718,47.608215 ]
    },
    "properties": {
    "FIELD1":12,
    "state":"Washington",
    "city":"Seattle",
    "year":1973,
    "type":"[NULL]",
    "name":"Adult Book Store",
    "address":"1415 1st Ave",
    "unit":"",
    "point":"1",
    "temp":"0",
    "loc":"0",
    "popular":"0",
    "byob":"0",
    "cruisy":"0",
    "c":"0",
    "d":"0",
    "e":"0",
    "ffa":"0",
    "g":"0",
    "h":"0",
    "hip":"0",
    "hot":"0",
    "m":"0",
    "mcc":"0",
    "p":"0",
    "pe":"0",
    "r":"0",
    "rt":"0",
    "s":"0",
    "sm":"0",
    "w":"0",
    "yc":"0",
    "loc_notes":"",
    "temp_notes":"",
    "notes":""
    }
  },
  {
    "type": "Feature",
    "geometry": {
       "type": "Point",
       "coordinates":  [ -122.337553,47.607793 ]
    },
    "properties": {
    "FIELD1":13,
    "state":"Washington",
    "city":"Seattle",
    "year":1973,
    "type":"[NULL]",
    "name":"Atlas Baths",
    "address":"1318 2nd Ave",
    "unit":"",
    "point":"1",
    "temp":"0",
    "loc":"0",
    "popular":"0",
    "byob":"0",
    "cruisy":"0",
    "c":"0",
    "d":"0",
    "e":"0",
    "ffa":"0",
    "g":"0",
    "h":"0",
    "hip":"0",
    "hot":"0",
    "m":"0",
    "mcc":"0",
    "p":"0",
    "pe":"0",
    "r":"0",
    "rt":"0",
    "s":"0",
    "sm":"0",
    "w":"0",
    "yc":"0",
    "loc_notes":"4th floor",
    "temp_notes":"",
    "notes":""
    }
  },
  {
    "type": "Feature",
    "geometry": {
       "type": "Point",
       "coordinates":  [ -122.319956,47.661488 ]
    },
    "properties": {
    "FIELD1":14,
    "state":"Washington",
    "city":"Seattle",
    "year":1973,
    "type":"[NULL]",
    "name":"Blue Moon",
    "address":"712 NE 45th St",
    "unit":"",
    "point":"1",
    "temp":"0",
    "loc":"0",
    "popular":"0",
    "byob":"0",
    "cruisy":"0",
    "c":"0",
    "d":"0",
    "e":"0",
    "ffa":"0",
    "g":"0",
    "h":"0",
    "hip":"0",
    "hot":"0",
    "m":"1",
    "mcc":"0",
    "p":"0",
    "pe":"0",
    "r":"0",
    "rt":"0",
    "s":"0",
    "sm":"0",
    "w":"0",
    "yc":"1",
    "loc_notes":"",
    "temp_notes":"",
    "notes":""
    }
  },
  {
    "type": "Feature",
    "geometry": {
       "type": "Point",
       "coordinates":  [ -122.313211,47.658578 ]
    },
    "properties": {
    "FIELD1":15,
    "state":"Washington",
    "city":"Seattle",
    "year":1973,
    "type":"[NULL]",
    "name":"Clark's Around the Clock",
    "address":"Clark's Around the Clock",
    "unit":"",
    "point":"1",
    "temp":"0",
    "loc":"0",
    "popular":"0",
    "byob":"0",
    "cruisy":"0",
    "c":"1",
    "d":"0",
    "e":"0",
    "ffa":"0",
    "g":"0",
    "h":"0",
    "hip":"0",
    "hot":"0",
    "m":"1",
    "mcc":"0",
    "p":"0",
    "pe":"0",
    "r":"1",
    "rt":"0",
    "s":"0",
    "sm":"0",
    "w":"0",
    "yc":"0",
    "loc_notes":"Stewart & Terry",
    "temp_notes":"",
    "notes":""
    }
  },
  {
    "type": "Feature",
    "geometry": {
       "type": "Point",
       "coordinates":  [ -122.347923,47.614201 ]
    },
    "properties": {
    "FIELD1":16,
    "state":"Washington",
    "city":"Seattle",
    "year":1973,
    "type":"[NULL]",
    "name":"Dave's Blaths",
    "address":"2402 1st Ave",
    "unit":"",
    "point":"1",
    "temp":"0",
    "loc":"0",
    "popular":"1",
    "byob":"0",
    "cruisy":"0",
    "c":"0",
    "d":"0",
    "e":"0",
    "ffa":"0",
    "g":"0",
    "h":"0",
    "hip":"0",
    "hot":"0",
    "m":"0",
    "mcc":"0",
    "p":"0",
    "pe":"0",
    "r":"0",
    "rt":"0",
    "s":"0",
    "sm":"0",
    "w":"0",
    "yc":"0",
    "loc_notes":"",
    "temp_notes":"",
    "notes":""
    }
  },
  {
    "type": "Feature",
    "geometry": {
       "type": "Point",
       "coordinates":  [ -122.33318,47.601525 ]
    },
    "properties": {
    "FIELD1":17,
    "state":"Washington",
    "city":"Seattle",
    "year":1973,
    "type":"[NULL]",
    "name":"Doll House",
    "address":"119 Yesler Way",
    "unit":"",
    "point":"1",
    "temp":"0",
    "loc":"0",
    "popular":"0",
    "byob":"0",
    "cruisy":"0",
    "c":"0",
    "d":"1",
    "e":"0",
    "ffa":"0",
    "g":"0",
    "h":"0",
    "hip":"0",
    "hot":"0",
    "m":"0",
    "mcc":"0",
    "p":"0",
    "pe":"0",
    "r":"0",
    "rt":"0",
    "s":"0",
    "sm":"0",
    "w":"0",
    "yc":"0",
    "loc_notes":"go-go boys",
    "temp_notes":"",
    "notes":""
    }
  },
  {
    "type": "Feature",
    "geometry": {
       "type": "Point",
       "coordinates":  [ -122.31364,47.621544 ]
    },
    "properties": {
    "FIELD1":18,
    "state":"Washington",
    "city":"Seattle",
    "year":1973,
    "type":"[NULL]",
    "name":"Dorian Society",
    "address":"320 Malden Ave",
    "unit":"",
    "point":"1",
    "temp":"0",
    "loc":"0",
    "popular":"0",
    "byob":"0",
    "cruisy":"0",
    "c":"0",
    "d":"0",
    "e":"0",
    "ffa":"0",
    "g":"0",
    "h":"0",
    "hip":"0",
    "hot":"0",
    "m":"0",
    "mcc":"0",
    "p":"0",
    "pe":"0",
    "r":"0",
    "rt":"0",
    "s":"0",
    "sm":"0",
    "w":"0",
    "yc":"0",
    "loc_notes":"Social Club",
    "temp_notes":"",
    "notes":""
    }
  },
  {
    "type": "Feature",
    "geometry": {
       "type": "Point",
       "coordinates":  [ -122.3321195,47.601128 ]
    },
    "properties": {
    "FIELD1":19,
    "state":"Washington",
    "city":"Seattle",
    "year":1973,
    "type":"[NULL]",
    "name":"Double Header",
    "address":"Double Header",
    "unit":"",
    "point":"1",
    "temp":"1",
    "loc":"0",
    "popular":"0",
    "byob":"0",
    "cruisy":"0",
    "c":"0",
    "d":"0",
    "e":"0",
    "ffa":"0",
    "g":"0",
    "h":"0",
    "hip":"0",
    "hot":"0",
    "m":"1",
    "mcc":"0",
    "p":"0",
    "pe":"0",
    "r":"0",
    "rt":"1",
    "s":"0",
    "sm":"0",
    "w":"0",
    "yc":"0",
    "loc_notes":"2nd and Yesler",
    "temp_notes":"",
    "notes":""
    }
  },
  {
    "type": "Feature",
    "geometry": {
       "type": "Point",
       "coordinates":  [ -122.31758,47.613882 ]
    },
    "properties": {
    "FIELD1":20,
    "state":"Washington",
    "city":"Seattle",
    "year":1973,
    "type":"[NULL]",
    "name":"Eleven Eleven Club",
    "address":"1111 E Pike St",
    "unit":"",
    "point":"1",
    "temp":"0",
    "loc":"0",
    "popular":"1",
    "byob":"0",
    "cruisy":"0",
    "c":"0",
    "d":"0",
    "e":"0",
    "ffa":"0",
    "g":"0",
    "h":"0",
    "hip":"1",
    "hot":"0",
    "m":"0",
    "mcc":"0",
    "p":"0",
    "pe":"0",
    "r":"0",
    "rt":"0",
    "s":"0",
    "sm":"0",
    "w":"0",
    "yc":"1",
    "loc_notes":"",
    "temp_notes":"",
    "notes":""
    }
  },
  {
    "type": "Feature",
    "geometry": {
       "type": "Point",
       "coordinates":  [ -122.331955,47.600543 ]
    },
    "properties": {
    "FIELD1":21,
    "state":"Washington",
    "city":"Seattle",
    "year":1973,
    "type":"[NULL]",
    "name":"Golden Horseshoe",
    "address":"207 2nd Ave S",
    "unit":"",
    "point":"1",
    "temp":"0",
    "loc":"0",
    "popular":"1",
    "byob":"0",
    "cruisy":"0",
    "c":"0",
    "d":"1",
    "e":"0",
    "ffa":"0",
    "g":"0",
    "h":"0",
    "hip":"1",
    "hot":"0",
    "m":"0",
    "mcc":"0",
    "p":"0",
    "pe":"0",
    "r":"0",
    "rt":"0",
    "s":"0",
    "sm":"0",
    "w":"0",
    "yc":"1",
    "loc_notes":"",
    "temp_notes":"",
    "notes":""
    }
  },
  {
    "type": "Feature",
    "geometry": {
       "type": "Point",
       "coordinates":  [ -122.333798,47.583666 ]
    },
    "properties": {
    "FIELD1":22,
    "state":"Washington",
    "city":"Seattle",
    "year":1973,
    "type":"[NULL]",
    "name":"Greek Torch",
    "address":"Greek Torch",
    "unit":"",
    "point":"1",
    "temp":"0",
    "loc":"0",
    "popular":"1",
    "byob":"0",
    "cruisy":"0",
    "c":"0",
    "d":"1",
    "e":"0",
    "ffa":"0",
    "g":"0",
    "h":"0",
    "hip":"0",
    "hot":"0",
    "m":"0",
    "mcc":"0",
    "p":"0",
    "pe":"0",
    "r":"1",
    "rt":"0",
    "s":"0",
    "sm":"0",
    "w":"0",
    "yc":"0",
    "loc_notes":"3rd & Yesler; liquor",
    "temp_notes":"",
    "notes":""
    }
  },
  {
    "type": "Feature",
    "geometry": {
       "type": "Point",
       "coordinates":  [ -122.3216943,47.60441555 ]
    },
    "properties": {
    "FIELD1":23,
    "state":"Washington",
    "city":"Seattle",
    "year":1973,
    "type":"[NULL]",
    "name":"Terrace Room",
    "address":"Terrace Room",
    "unit":"",
    "point":"1",
    "temp":"0",
    "loc":"0",
    "popular":"0",
    "byob":"0",
    "cruisy":"0",
    "c":"0",
    "d":"0",
    "e":"0",
    "ffa":"0",
    "g":"0",
    "h":"0",
    "hip":"0",
    "hot":"0",
    "m":"1",
    "mcc":"0",
    "p":"0",
    "pe":"1",
    "r":"0",
    "rt":"0",
    "s":"0",
    "sm":"0",
    "w":"0",
    "yc":"0",
    "loc_notes":"",
    "temp_notes":"",
    "notes":""
    }
  },
  {
    "type": "Feature",
    "geometry": {
       "type": "Point",
       "coordinates":  [ -122.336227,47.619365 ]
    },
    "properties": {
    "FIELD1":24,
    "state":"Washington",
    "city":"Seattle",
    "year":1973,
    "type":"[NULL]",
    "name":"Thirteen Coins",
    "address":"125 Boren Ave N",
    "unit":"",
    "point":"1",
    "temp":"0",
    "loc":"0",
    "popular":"0",
    "byob":"0",
    "cruisy":"0",
    "c":"1",
    "d":"0",
    "e":"0",
    "ffa":"0",
    "g":"0",
    "h":"0",
    "hip":"0",
    "hot":"0",
    "m":"1",
    "mcc":"0",
    "p":"0",
    "pe":"0",
    "r":"1",
    "rt":"0",
    "s":"0",
    "sm":"0",
    "w":"0",
    "yc":"0",
    "loc_notes":"",
    "temp_notes":"",
    "notes":""
    }
  },
  {
    "type": "Feature",
    "geometry": {
       "type": "Point",
       "coordinates":  [ -4.632727,53.314128 ]
    },
    "properties": {
    "FIELD1":25,
    "state":"Washington",
    "city":"Seattle",
    "year":1973,
    "type":"[NULL]",
    "name":"Victrola Tavern",
    "address":"91 Lower Pike St",
    "unit":"",
    "point":"1",
    "temp":"0",
    "loc":"0",
    "popular":"0",
    "byob":"0",
    "cruisy":"0",
    "c":"0",
    "d":"0",
    "e":"0",
    "ffa":"0",
    "g":"0",
    "h":"0",
    "hip":"1",
    "hot":"0",
    "m":"1",
    "mcc":"0",
    "p":"0",
    "pe":"0",
    "r":"0",
    "rt":"0",
    "s":"0",
    "sm":"0",
    "w":"0",
    "yc":"0",
    "loc_notes":"",
    "temp_notes":"",
    "notes":""
    }
  },
  {
    "type": "Feature",
    "geometry": {
       "type": "Point",
       "coordinates":  [ -122.321153,47.614074 ]
    },
    "properties": {
    "FIELD1":26,
    "state":"Washington",
    "city":"Seattle",
    "year":1973,
    "type":"Cruisy Areas",
    "name":"Colonial Theatre",
    "address":"Colonial Theatre",
    "unit":"",
    "point":"1",
    "temp":"0",
    "loc":"0",
    "popular":"0",
    "byob":"0",
    "cruisy":"0",
    "c":"0",
    "d":"0",
    "e":"0",
    "ffa":"0",
    "g":"0",
    "h":"0",
    "hip":"0",
    "hot":"0",
    "m":"0",
    "mcc":"0",
    "p":"0",
    "pe":"0",
    "r":"0",
    "rt":"0",
    "s":"0",
    "sm":"0",
    "w":"0",
    "yc":"0",
    "loc_notes":"",
    "temp_notes":"",
    "notes":""
    }
  },
  {
    "type": "Feature",
    "geometry": {
       "type": "Point",
       "coordinates":  [ -122.32034,47.599502 ]
    },
    "properties": {
    "FIELD1":27,
    "state":"Washington",
    "city":"Seattle",
    "year":1973,
    "type":"Cruisy Areas",
    "name":"First Ave Movie Arcades",
    "address":"First Ave Movie Arcades",
    "unit":"",
    "point":"1",
    "temp":"0",
    "loc":"0",
    "popular":"0",
    "byob":"0",
    "cruisy":"0",
    "c":"0",
    "d":"0",
    "e":"0",
    "ffa":"0",
    "g":"0",
    "h":"0",
    "hip":"0",
    "hot":"0",
    "m":"0",
    "mcc":"0",
    "p":"0",
    "pe":"0",
    "r":"0",
    "rt":"0",
    "s":"0",
    "sm":"0",
    "w":"0",
    "yc":"0",
    "loc_notes":"",
    "temp_notes":"",
    "notes":""
    }
  },
  {
    "type": "Feature",
    "geometry": {
       "type": "Point",
       "coordinates":  [ -122.276765,47.635854 ]
    },
    "properties": {
    "FIELD1":28,
    "state":"Washington",
    "city":"Seattle",
    "year":1973,
    "type":"Cruisy Areas",
    "name":"Madison Beach",
    "address":"Madison Beach",
    "unit":"",
    "point":"0",
    "temp":"0",
    "loc":"0",
    "popular":"0",
    "byob":"0",
    "cruisy":"0",
    "c":"0",
    "d":"0",
    "e":"0",
    "ffa":"0",
    "g":"0",
    "h":"0",
    "hip":"0",
    "hot":"0",
    "m":"0",
    "mcc":"0",
    "p":"0",
    "pe":"0",
    "r":"0",
    "rt":"0",
    "s":"0",
    "sm":"0",
    "w":"0",
    "yc":"0",
    "loc_notes":"43rd & Madison",
    "temp_notes":"",
    "notes":""
    }
  },
  {
    "type": "Feature",
    "geometry": {
       "type": "Point",
       "coordinates":  [ -122.2832678,47.664496 ]
    },
    "properties": {
    "FIELD1":29,
    "state":"Washington",
    "city":"Seattle",
    "year":1973,
    "type":"Cruisy Areas",
    "name":"Penny's Corner",
    "address":"Penny's Corner",
    "unit":"",
    "point":"0",
    "temp":"0",
    "loc":"0",
    "popular":"0",
    "byob":"0",
    "cruisy":"0",
    "c":"0",
    "d":"0",
    "e":"0",
    "ffa":"0",
    "g":"0",
    "h":"0",
    "hip":"0",
    "hot":"0",
    "m":"0",
    "mcc":"0",
    "p":"0",
    "pe":"0",
    "r":"0",
    "rt":"0",
    "s":"0",
    "sm":"0",
    "w":"0",
    "yc":"0",
    "loc_notes":"2nd Ave between Pike & Union",
    "temp_notes":"",
    "notes":""
    }
  },
  {
    "type": "Feature",
    "geometry": {
       "type": "Point",
       "coordinates":  [ -122.2608738,47.4112745 ]
    },
    "properties": {
    "FIELD1":30,
    "state":"Washington",
    "city":"Seattle",
    "year":1973,
    "type":"Cruisy Areas",
    "name":"Second & Yesler",
    "address":"Second & Yesler",
    "unit":"",
    "point":"0",
    "temp":"0",
    "loc":"0",
    "popular":"0",
    "byob":"0",
    "cruisy":"0",
    "c":"0",
    "d":"0",
    "e":"0",
    "ffa":"0",
    "g":"0",
    "h":"0",
    "hip":"0",
    "hot":"0",
    "m":"0",
    "mcc":"0",
    "p":"0",
    "pe":"0",
    "r":"0",
    "rt":"0",
    "s":"0",
    "sm":"0",
    "w":"0",
    "yc":"0",
    "loc_notes":"",
    "temp_notes":"",
    "notes":""
    }
  },
  {
    "type": "Feature",
    "geometry": {
       "type": "Point",
       "coordinates":  [ -122.3301,47.6038 ]
    },
    "properties": {
    "FIELD1":31,
    "state":"Washington",
    "city":"Seattle",
    "year":1973,
    "type":"Cruisy Areas",
    "name":"Smith Hall",
    "address":"Smith Hall",
    "unit":"",
    "point":"0",
    "temp":"0",
    "loc":"0",
    "popular":"0",
    "byob":"0",
    "cruisy":"0",
    "c":"0",
    "d":"0",
    "e":"0",
    "ffa":"0",
    "g":"0",
    "h":"0",
    "hip":"0",
    "hot":"0",
    "m":"0",
    "mcc":"0",
    "p":"0",
    "pe":"0",
    "r":"0",
    "rt":"0",
    "s":"0",
    "sm":"0",
    "w":"0",
    "yc":"0",
    "loc_notes":"University of Washington",
    "temp_notes":"",
    "notes":""
    }
  },
  {
    "type": "Feature",
    "geometry": {
       "type": "Point",
       "coordinates":  [ -122.315941,47.62977 ]
    },
    "properties": {
    "FIELD1":32,
    "state":"Washington",
    "city":"Seattle",
    "year":1973,
    "type":"Cruisy Areas",
    "name":"Volunteer Park",
    "address":"Volunteer Park",
    "unit":"",
    "point":"0",
    "temp":"0",
    "loc":"0",
    "popular":"0",
    "byob":"0",
    "cruisy":"0",
    "c":"0",
    "d":"0",
    "e":"0",
    "ffa":"0",
    "g":"0",
    "h":"0",
    "hip":"0",
    "hot":"0",
    "m":"0",
    "mcc":"0",
    "p":"0",
    "pe":"0",
    "r":"0",
    "rt":"0",
    "s":"0",
    "sm":"0",
    "w":"0",
    "yc":"0",
    "loc_notes":"area near Seattle Art useum",
    "temp_notes":"",
    "notes":""
    }
  },
  {
    "type": "Feature",
    "geometry": {
       "type": "Point",
       "coordinates":  [ -122.339718,47.608215 ]
    },
    "properties": {
    "FIELD1":33,
    "state":"Washington",
    "city":"Seattle",
    "year":1975,
    "type":"",
    "name":"Adult Book Store",
    "address":"1415 1st Ave",
    "unit":"",
    "point":"1",
    "temp":"0",
    "loc":"0",
    "popular":"0",
    "byob":"0",
    "cruisy":"0",
    "c":"0",
    "d":"0",
    "e":"0",
    "ffa":"0",
    "g":"0",
    "h":"0",
    "hip":"0",
    "hot":"0",
    "m":"0",
    "mcc":"0",
    "p":"0",
    "pe":"0",
    "r":"0",
    "rt":"0",
    "s":"0",
    "sm":"0",
    "w":"0",
    "yc":"0",
    "loc_notes":"",
    "temp_notes":"",
    "notes":""
    }
  },
  {
    "type": "Feature",
    "geometry": {
       "type": "Point",
       "coordinates":  [ -122.337553,47.607793 ]
    },
    "properties": {
    "FIELD1":34,
    "state":"Washington",
    "city":"Seattle",
    "year":1975,
    "type":"",
    "name":"Atlas Books",
    "address":"1318 2nd Ave",
    "unit":"",
    "point":"1",
    "temp":"0",
    "loc":"1",
    "popular":"1",
    "byob":"0",
    "cruisy":"0",
    "c":"0",
    "d":"0",
    "e":"0",
    "ffa":"0",
    "g":"0",
    "h":"0",
    "hip":"0",
    "hot":"0",
    "m":"0",
    "mcc":"0",
    "p":"0",
    "pe":"0",
    "r":"0",
    "rt":"0",
    "s":"0",
    "sm":"0",
    "w":"0",
    "yc":"0",
    "loc_notes":"4th floor",
    "temp_notes":"",
    "notes":""
    }
  },
  {
    "type": "Feature",
    "geometry": {
       "type": "Point",
       "coordinates":  [ -122.319956,47.661488 ]
    },
    "properties": {
    "FIELD1":35,
    "state":"Washington",
    "city":"Seattle",
    "year":1975,
    "type":"",
    "name":"Blue Moon",
    "address":"712 NE 45th",
    "unit":"",
    "point":"1",
    "temp":"0",
    "loc":"0",
    "popular":"0",
    "byob":"0",
    "cruisy":"0",
    "c":"0",
    "d":"0",
    "e":"0",
    "ffa":"0",
    "g":"0",
    "h":"0",
    "hip":"0",
    "hot":"0",
    "m":"1",
    "mcc":"0",
    "p":"0",
    "pe":"0",
    "r":"0",
    "rt":"0",
    "s":"0",
    "sm":"0",
    "w":"0",
    "yc":"1",
    "loc_notes":"",
    "temp_notes":"",
    "notes":""
    }
  },
  {
    "type": "Feature",
    "geometry": {
       "type": "Point",
       "coordinates":  [ -122.331963,47.600707 ]
    },
    "properties": {
    "FIELD1":36,
    "state":"Washington",
    "city":"Seattle",
    "year":1975,
    "type":"",
    "name":"Columbus",
    "address":"167 S Washington St",
    "unit":"",
    "point":"1",
    "temp":"0",
    "loc":"0",
    "popular":"0",
    "byob":"0",
    "cruisy":"0",
    "c":"0",
    "d":"0",
    "e":"0",
    "ffa":"0",
    "g":"0",
    "h":"0",
    "hip":"0",
    "hot":"0",
    "m":"0",
    "mcc":"0",
    "p":"0",
    "pe":"0",
    "r":"0",
    "rt":"1",
    "s":"0",
    "sm":"0",
    "w":"0",
    "yc":"0",
    "loc_notes":"",
    "temp_notes":"",
    "notes":""
    }
  },
  {
    "type": "Feature",
    "geometry": {
       "type": "Point",
       "coordinates":  [ -122.347923,47.614201 ]
    },
    "properties": {
    "FIELD1":37,
    "state":"Washington",
    "city":"Seattle",
    "year":1975,
    "type":"",
    "name":"Dave's Baths",
    "address":"2402 1st Ave",
    "unit":"",
    "point":"1",
    "temp":"0",
    "loc":"0",
    "popular":"1",
    "byob":"0",
    "cruisy":"0",
    "c":"0",
    "d":"0",
    "e":"0",
    "ffa":"0",
    "g":"0",
    "h":"0",
    "hip":"0",
    "hot":"0",
    "m":"0",
    "mcc":"0",
    "p":"0",
    "pe":"0",
    "r":"0",
    "rt":"0",
    "s":"0",
    "sm":"0",
    "w":"0",
    "yc":"0",
    "loc_notes":"",
    "temp_notes":"",
    "notes":""
    }
  },
  {
    "type": "Feature",
    "geometry": {
       "type": "Point",
       "coordinates":  [ -122.33318,47.601525 ]
    },
    "properties": {
    "FIELD1":38,
    "state":"Washington",
    "city":"Seattle",
    "year":1975,
    "type":"",
    "name":"Doll House",
    "address":"119 Yesler Way",
    "unit":"",
    "point":"1",
    "temp":"0",
    "loc":"0",
    "popular":"0",
    "byob":"0",
    "cruisy":"0",
    "c":"0",
    "d":"1",
    "e":"0",
    "ffa":"0",
    "g":"1",
    "h":"0",
    "hip":"0",
    "hot":"0",
    "m":"0",
    "mcc":"0",
    "p":"0",
    "pe":"0",
    "r":"0",
    "rt":"0",
    "s":"0",
    "sm":"0",
    "w":"0",
    "yc":"0",
    "loc_notes":"Some G; go-go boys",
    "temp_notes":"",
    "notes":""
    }
  },
  {
    "type": "Feature",
    "geometry": {
       "type": "Point",
       "coordinates":  [ -122.332163,47.601925 ]
    },
    "properties": {
    "FIELD1":39,
    "state":"Washington",
    "city":"Seattle",
    "year":1975,
    "type":"",
    "name":"Double hEader",
    "address":"407 2nd Ave",
    "unit":"",
    "point":"1",
    "temp":"0",
    "loc":"0",
    "popular":"0",
    "byob":"0",
    "cruisy":"0",
    "c":"0",
    "d":"0",
    "e":"0",
    "ffa":"0",
    "g":"0",
    "h":"0",
    "hip":"0",
    "hot":"0",
    "m":"1",
    "mcc":"0",
    "p":"0",
    "pe":"0",
    "r":"0",
    "rt":"1",
    "s":"0",
    "sm":"0",
    "w":"0",
    "yc":"0",
    "loc_notes":"",
    "temp_notes":"",
    "notes":""
    }
  },
  {
    "type": "Feature",
    "geometry": {
       "type": "Point",
       "coordinates":  [ -122.31758,47.613882 ]
    },
    "properties": {
    "FIELD1":40,
    "state":"Washington",
    "city":"Seattle",
    "year":1975,
    "type":"",
    "name":"Eleven Eleven Tavern",
    "address":"1111 E Pike St",
    "unit":"",
    "point":"1",
    "temp":"0",
    "loc":"0",
    "popular":"0",
    "byob":"0",
    "cruisy":"0",
    "c":"0",
    "d":"1",
    "e":"0",
    "ffa":"0",
    "g":"0",
    "h":"0",
    "hip":"0",
    "hot":"0",
    "m":"0",
    "mcc":"0",
    "p":"0",
    "pe":"0",
    "r":"0",
    "rt":"0",
    "s":"0",
    "sm":"0",
    "w":"0",
    "yc":"0",
    "loc_notes":"",
    "temp_notes":"",
    "notes":""
    }
  },
  {
    "type": "Feature",
    "geometry": {
       "type": "Point",
       "coordinates":  [ -122.33166,47.60073 ]
    },
    "properties": {
    "FIELD1":41,
    "state":"Washington",
    "city":"Seattle",
    "year":1975,
    "type":"",
    "name":"Golden Horshoe",
    "address":"207 2nd Ave",
    "unit":"",
    "point":"1",
    "temp":"0",
    "loc":"0",
    "popular":"1",
    "byob":"0",
    "cruisy":"0",
    "c":"0",
    "d":"1",
    "e":"0",
    "ffa":"0",
    "g":"0",
    "h":"0",
    "hip":"1",
    "hot":"0",
    "m":"0",
    "mcc":"0",
    "p":"0",
    "pe":"0",
    "r":"0",
    "rt":"0",
    "s":"0",
    "sm":"0",
    "w":"0",
    "yc":"1",
    "loc_notes":"",
    "temp_notes":"",
    "notes":""
    }
  },
  {
    "type": "Feature",
    "geometry": {
       "type": "Point",
       "coordinates":  [ -122.343095,47.611522 ]
    },
    "properties": {
    "FIELD1":42,
    "state":"Washington",
    "city":"Seattle",
    "year":1975,
    "type":"",
    "name":"Johnny's Handlebar",
    "address":"2018 1st Ave",
    "unit":"",
    "point":"1",
    "temp":"0",
    "loc":"0",
    "popular":"0",
    "byob":"0",
    "cruisy":"0",
    "c":"0",
    "d":"0",
    "e":"0",
    "ffa":"0",
    "g":"0",
    "h":"0",
    "hip":"0",
    "hot":"0",
    "m":"0",
    "mcc":"0",
    "p":"0",
    "pe":"0",
    "r":"0",
    "rt":"0",
    "s":"0",
    "sm":"0",
    "w":"0",
    "yc":"0",
    "loc_notes":"",
    "temp_notes":"",
    "notes":""
    }
  },
  {
    "type": "Feature",
    "geometry": {
       "type": "Point",
       "coordinates":  [ -122.311081,47.619441 ]
    },
    "properties": {
    "FIELD1":43,
    "state":"Washington",
    "city":"Seattle",
    "year":1975,
    "type":"",
    "name":"M.C.C.",
    "address":"128 16th Ave E",
    "unit":"",
    "point":"1",
    "temp":"0",
    "loc":"0",
    "popular":"1",
    "byob":"0",
    "cruisy":"0",
    "c":"0",
    "d":"0",
    "e":"0",
    "ffa":"0",
    "g":"0",
    "h":"0",
    "hip":"0",
    "hot":"0",
    "m":"0",
    "mcc":"0",
    "p":"0",
    "pe":"0",
    "r":"0",
    "rt":"0",
    "s":"0",
    "sm":"1",
    "w":"1",
    "yc":"0",
    "loc_notes":"",
    "temp_notes":"",
    "notes":""
    }
  },
  {
    "type": "Feature",
    "geometry": {
       "type": "Point",
       "coordinates":  [ -122.331921,47.612032 ]
    },
    "properties": {
    "FIELD1":44,
    "state":"Washington",
    "city":"Seattle",
    "year":1975,
    "type":"",
    "name":"Mike's Pike St Tavern",
    "address":"815 Pike St",
    "unit":"",
    "point":"1",
    "temp":"0",
    "loc":"0",
    "popular":"0",
    "byob":"0",
    "cruisy":"0",
    "c":"0",
    "d":"0",
    "e":"0",
    "ffa":"0",
    "g":"0",
    "h":"0",
    "hip":"0",
    "hot":"0",
    "m":"0",
    "mcc":"0",
    "p":"0",
    "pe":"0",
    "r":"0",
    "rt":"0",
    "s":"0",
    "sm":"0",
    "w":"0",
    "yc":"0",
    "loc_notes":"",
    "temp_notes":"",
    "notes":""
    }
  },
  {
    "type": "Feature",
    "geometry": {
       "type": "Point",
       "coordinates":  [ -122.331269,47.601605 ]
    },
    "properties": {
    "FIELD1":45,
    "state":"Washington",
    "city":"Seattle",
    "year":1975,
    "type":"",
    "name":"Mocambo",
    "address":"203 Yesler Way",
    "unit":"",
    "point":"1",
    "temp":"0",
    "loc":"0",
    "popular":"1",
    "byob":"0",
    "cruisy":"0",
    "c":"0",
    "d":"0",
    "e":"0",
    "ffa":"0",
    "g":"0",
    "h":"0",
    "hip":"0",
    "hot":"0",
    "m":"0",
    "mcc":"0",
    "p":"0",
    "pe":"0",
    "r":"1",
    "rt":"0",
    "s":"0",
    "sm":"0",
    "w":"0",
    "yc":"0",
    "loc_notes":"liquor",
    "temp_notes":"",
    "notes":""
    }
  },
  {
    "type": "Feature",
    "geometry": {
       "type": "Point",
       "coordinates":  [ -122.312865,47.622919 ]
    },
    "properties": {
    "FIELD1":46,
    "state":"Washington",
    "city":"Seattle",
    "year":1975,
    "type":"",
    "name":"Mother Morgan's Gumbo Factory",
    "address":"431 15th Ave E",
    "unit":"",
    "point":"1",
    "temp":"0",
    "loc":"0",
    "popular":"0",
    "byob":"0",
    "cruisy":"0",
    "c":"0",
    "d":"0",
    "e":"0",
    "ffa":"0",
    "g":"0",
    "h":"0",
    "hip":"1",
    "hot":"0",
    "m":"1",
    "mcc":"0",
    "p":"0",
    "pe":"0",
    "r":"1",
    "rt":"0",
    "s":"0",
    "sm":"0",
    "w":"0",
    "yc":"0",
    "loc_notes":"5-12pm close Sun and Mon",
    "temp_notes":"",
    "notes":""
    }
  },
  {
    "type": "Feature",
    "geometry": {
       "type": "Point",
       "coordinates":  [ -122.360602,47.627568 ]
    },
    "properties": {
    "FIELD1":47,
    "state":"Washington",
    "city":"Seattle",
    "year":1975,
    "type":"",
    "name":"Nine Twenty Two Tavern",
    "address":"922 3rd Ave",
    "unit":"",
    "point":"1",
    "temp":"0",
    "loc":"0",
    "popular":"0",
    "byob":"0",
    "cruisy":"0",
    "c":"0",
    "d":"0",
    "e":"0",
    "ffa":"0",
    "g":"0",
    "h":"0",
    "hip":"0",
    "hot":"0",
    "m":"0",
    "mcc":"0",
    "p":"0",
    "pe":"0",
    "r":"0",
    "rt":"0",
    "s":"0",
    "sm":"0",
    "w":"0",
    "yc":"0",
    "loc_notes":"",
    "temp_notes":"",
    "notes":""
    }
  },
  {
    "type": "Feature",
    "geometry": {
       "type": "Point",
       "coordinates":  [ -122.335125,47.599898 ]
    },
    "properties": {
    "FIELD1":48,
    "state":"Washington",
    "city":"Seattle",
    "year":1975,
    "type":"",
    "name":"Shelly's Leg",
    "address":"77 S Main St",
    "unit":"",
    "point":"1",
    "temp":"0",
    "loc":"0",
    "popular":"1",
    "byob":"0",
    "cruisy":"0",
    "c":"0",
    "d":"1",
    "e":"0",
    "ffa":"0",
    "g":"0",
    "h":"0",
    "hip":"0",
    "hot":"0",
    "m":"0",
    "mcc":"0",
    "p":"0",
    "pe":"0",
    "r":"0",
    "rt":"0",
    "s":"0",
    "sm":"0",
    "w":"0",
    "yc":"1",
    "loc_notes":"At foot of Main St near Alaskan Way; Disco",
    "temp_notes":"",
    "notes":""
    }
  },
  {
    "type": "Feature",
    "geometry": {
       "type": "Point",
       "coordinates":  [ -122.33108,47.599344 ]
    },
    "properties": {
    "FIELD1":49,
    "state":"Washington",
    "city":"Seattle",
    "year":1975,
    "type":"",
    "name":"Silver Sliper",
    "address":"210 S Jackson St",
    "unit":"",
    "point":"1",
    "temp":"0",
    "loc":"0",
    "popular":"1",
    "byob":"0",
    "cruisy":"0",
    "c":"0",
    "d":"1",
    "e":"0",
    "ffa":"0",
    "g":"1",
    "h":"0",
    "hip":"0",
    "hot":"0",
    "m":"0",
    "mcc":"0",
    "p":"0",
    "pe":"0",
    "r":"0",
    "rt":"0",
    "s":"0",
    "sm":"0",
    "w":"0",
    "yc":"0",
    "loc_notes":"",
    "temp_notes":"",
    "notes":""
    }
  },
  {
    "type": "Feature",
    "geometry": {
       "type": "Point",
       "coordinates":  [ -122.331815,47.600707 ]
    },
    "properties": {
    "FIELD1":50,
    "state":"Washington",
    "city":"Seattle",
    "year":1975,
    "type":"",
    "name":"Silver Star",
    "address":"173 S Washington St",
    "unit":"",
    "point":"1",
    "temp":"0",
    "loc":"0",
    "popular":"0",
    "byob":"0",
    "cruisy":"0",
    "c":"0",
    "d":"0",
    "e":"0",
    "ffa":"0",
    "g":"0",
    "h":"0",
    "hip":"0",
    "hot":"0",
    "m":"0",
    "mcc":"0",
    "p":"0",
    "pe":"0",
    "r":"0",
    "rt":"0",
    "s":"0",
    "sm":"0",
    "w":"0",
    "yc":"0",
    "loc_notes":"",
    "temp_notes":"",
    "notes":""
    }
  },
  {
    "type": "Feature",
    "geometry": {
       "type": "Point",
       "coordinates":  [ -122.333185,47.602467 ]
    },
    "properties": {
    "FIELD1":51,
    "state":"Washington",
    "city":"Seattle",
    "year":1975,
    "type":"",
    "name":"Six Eleven Club",
    "address":"611 2nd Ave",
    "unit":"",
    "point":"1",
    "temp":"0",
    "loc":"0",
    "popular":"1",
    "byob":"0",
    "cruisy":"0",
    "c":"0",
    "d":"0",
    "e":"0",
    "ffa":"0",
    "g":"0",
    "h":"0",
    "hip":"0",
    "hot":"0",
    "m":"0",
    "mcc":"0",
    "p":"0",
    "pe":"0",
    "r":"0",
    "rt":"0",
    "s":"0",
    "sm":"0",
    "w":"0",
    "yc":"0",
    "loc_notes":"",
    "temp_notes":"",
    "notes":""
    }
  },
  {
    "type": "Feature",
    "geometry": {
       "type": "Point",
       "coordinates":  [ -122.334473,47.601305 ]
    },
    "properties": {
    "FIELD1":52,
    "state":"Washington",
    "city":"Seattle",
    "year":1975,
    "type":"",
    "name":"Southend Baths",
    "address":"115 1st Ave S",
    "unit":"",
    "point":"1",
    "temp":"0",
    "loc":"0",
    "popular":"0",
    "byob":"0",
    "cruisy":"0",
    "c":"0",
    "d":"0",
    "e":"0",
    "ffa":"0",
    "g":"0",
    "h":"0",
    "hip":"0",
    "hot":"0",
    "m":"0",
    "mcc":"0",
    "p":"0",
    "pe":"0",
    "r":"0",
    "rt":"0",
    "s":"0",
    "sm":"0",
    "w":"0",
    "yc":"0",
    "loc_notes":"1st Ave near Pioneer Square",
    "temp_notes":"",
    "notes":""
    }
  },
  {
    "type": "Feature",
    "geometry": {
       "type": "Point",
       "coordinates":  [ -122.328666,47.613584 ]
    },
    "properties": {
    "FIELD1":53,
    "state":"Washington",
    "city":"Seattle",
    "year":1975,
    "type":"",
    "name":"Spag's Tavern",
    "address":"924 Pine St",
    "unit":"",
    "point":"1",
    "temp":"1",
    "loc":"0",
    "popular":"1",
    "byob":"0",
    "cruisy":"0",
    "c":"0",
    "d":"0",
    "e":"0",
    "ffa":"0",
    "g":"0",
    "h":"0",
    "hip":"0",
    "hot":"0",
    "m":"0",
    "mcc":"0",
    "p":"0",
    "pe":"0",
    "r":"0",
    "rt":"0",
    "s":"0",
    "sm":"0",
    "w":"0",
    "yc":"0",
    "loc_notes":"Pine & Terry Sts",
    "temp_notes":"",
    "notes":""
    }
  },
  {
    "type": "Feature",
    "geometry": {
       "type": "Point",
       "coordinates":  [ -122.33876,47.607148 ]
    },
    "properties": {
    "FIELD1":54,
    "state":"Washington",
    "city":"Seattle",
    "year":1975,
    "type":"",
    "name":"Sultan's Lavender Theatre & Bookstore",
    "address":"1313 1st Ave",
    "unit":"",
    "point":"1",
    "temp":"0",
    "loc":"0",
    "popular":"0",
    "byob":"0",
    "cruisy":"0",
    "c":"0",
    "d":"0",
    "e":"0",
    "ffa":"0",
    "g":"0",
    "h":"0",
    "hip":"0",
    "hot":"0",
    "m":"0",
    "mcc":"0",
    "p":"0",
    "pe":"0",
    "r":"0",
    "rt":"0",
    "s":"0",
    "sm":"0",
    "w":"0",
    "yc":"0",
    "loc_notes":"",
    "temp_notes":"",
    "notes":""
    }
  },
  {
    "type": "Feature",
    "geometry": {
       "type": "Point",
       "coordinates":  [ -122.334144,47.608194 ]
    },
    "properties": {
    "FIELD1":55,
    "state":"Washington",
    "city":"Seattle",
    "year":1975,
    "type":"",
    "name":"Terrace Room",
    "address":"411 University St",
    "unit":"",
    "point":"1",
    "temp":"0",
    "loc":"0",
    "popular":"0",
    "byob":"0",
    "cruisy":"0",
    "c":"0",
    "d":"0",
    "e":"0",
    "ffa":"0",
    "g":"0",
    "h":"0",
    "hip":"0",
    "hot":"0",
    "m":"1",
    "mcc":"0",
    "p":"0",
    "pe":"1",
    "r":"0",
    "rt":"0",
    "s":"0",
    "sm":"0",
    "w":"0",
    "yc":"0",
    "loc_notes":"4th & Seneca; Olympic Hotel",
    "temp_notes":"",
    "notes":""
    }
  },
  {
    "type": "Feature",
    "geometry": {
       "type": "Point",
       "coordinates":  [ -122.336227,47.619365 ]
    },
    "properties": {
    "FIELD1":56,
    "state":"Washington",
    "city":"Seattle",
    "year":1975,
    "type":"",
    "name":"Thirteen Coins",
    "address":"125 Boren N",
    "unit":"",
    "point":"1",
    "temp":"0",
    "loc":"0",
    "popular":"0",
    "byob":"0",
    "cruisy":"0",
    "c":"1",
    "d":"0",
    "e":"0",
    "ffa":"0",
    "g":"0",
    "h":"0",
    "hip":"0",
    "hot":"0",
    "m":"1",
    "mcc":"0",
    "p":"0",
    "pe":"0",
    "r":"1",
    "rt":"0",
    "s":"0",
    "sm":"0",
    "w":"0",
    "yc":"0",
    "loc_notes":"",
    "temp_notes":"",
    "notes":""
    }
  },
  {
    "type": "Feature",
    "geometry": {
       "type": "Point",
       "coordinates":  [ -122.335252,47.616349 ]
    },
    "properties": {
    "FIELD1":57,
    "state":"Washington",
    "city":"Seattle",
    "year":1975,
    "type":"",
    "name":"Tip Inn",
    "address":"1926 9th Ave",
    "unit":"",
    "point":"1",
    "temp":"0",
    "loc":"0",
    "popular":"0",
    "byob":"0",
    "cruisy":"0",
    "c":"0",
    "d":"0",
    "e":"0",
    "ffa":"0",
    "g":"0",
    "h":"0",
    "hip":"0",
    "hot":"0",
    "m":"1",
    "mcc":"0",
    "p":"0",
    "pe":"1",
    "r":"0",
    "rt":"0",
    "s":"0",
    "sm":"0",
    "w":"0",
    "yc":"0",
    "loc_notes":"",
    "temp_notes":"",
    "notes":""
    }
  },
  {
    "type": "Feature",
    "geometry": {
       "type": "Point",
       "coordinates":  [ -122.333262,47.601182 ]
    },
    "properties": {
    "FIELD1":58,
    "state":"Washington",
    "city":"Seattle",
    "year":1975,
    "type":"",
    "name":"Trojan Shield",
    "address":"117 Occidental Ave S",
    "unit":"",
    "point":"1",
    "temp":"0",
    "loc":"0",
    "popular":"0",
    "byob":"0",
    "cruisy":"0",
    "c":"1",
    "d":"1",
    "e":"0",
    "ffa":"0",
    "g":"0",
    "h":"0",
    "hip":"0",
    "hot":"0",
    "m":"0",
    "mcc":"0",
    "p":"0",
    "pe":"0",
    "r":"1",
    "rt":"0",
    "s":"1",
    "sm":"0",
    "w":"0",
    "yc":"0",
    "loc_notes":"liquor",
    "temp_notes":"",
    "notes":""
    }
  },
  {
    "type": "Feature",
    "geometry": {
       "type": "Point",
       "coordinates":  [ -122.34062,47.60865 ]
    },
    "properties": {
    "FIELD1":59,
    "state":"Washington",
    "city":"Seattle",
    "year":1975,
    "type":"",
    "name":"Victrola Tavern",
    "address":"86 Pike Place",
    "unit":"",
    "point":"1",
    "temp":"0",
    "loc":"0",
    "popular":"0",
    "byob":"0",
    "cruisy":"0",
    "c":"0",
    "d":"0",
    "e":"0",
    "ffa":"0",
    "g":"0",
    "h":"0",
    "hip":"1",
    "hot":"0",
    "m":"1",
    "mcc":"0",
    "p":"0",
    "pe":"0",
    "r":"0",
    "rt":"0",
    "s":"0",
    "sm":"0",
    "w":"0",
    "yc":"1",
    "loc_notes":"Pike Place Public Market",
    "temp_notes":"",
    "notes":""
    }
  },
  {
    "type": "Feature",
    "geometry": {
       "type": "Point",
       "coordinates":  [ -122.32034,47.599502 ]
    },
    "properties": {
    "FIELD1":60,
    "state":"Washington",
    "city":"Seattle",
    "year":1975,
    "type":"Cruisy Area",
    "name":"1st Ave Movie Arcades",
    "address":"1st Ave Movie Arcades",
    "unit":"",
    "point":"0",
    "temp":"0",
    "loc":"0",
    "popular":"0",
    "byob":"0",
    "cruisy":"1",
    "c":"0",
    "d":"0",
    "e":"0",
    "ffa":"0",
    "g":"0",
    "h":"0",
    "hip":"1",
    "hot":"0",
    "m":"0",
    "mcc":"0",
    "p":"0",
    "pe":"0",
    "r":"0",
    "rt":"0",
    "s":"0",
    "sm":"0",
    "w":"0",
    "yc":"0",
    "loc_notes":"",
    "temp_notes":"",
    "notes":""
    }
  },
  {
    "type": "Feature",
    "geometry": {
       "type": "Point",
       "coordinates":  [ -122.336805,47.602724 ]
    },
    "properties": {
    "FIELD1":61,
    "state":"Washington",
    "city":"Seattle",
    "year":1975,
    "type":"Cruisy Area",
    "name":"Loading dock opposite Ferry Terminal",
    "address":"800 Alaskan Way",
    "unit":"",
    "point":"0",
    "temp":"0",
    "loc":"0",
    "popular":"0",
    "byob":"0",
    "cruisy":"1",
    "c":"0",
    "d":"0",
    "e":"0",
    "ffa":"0",
    "g":"0",
    "h":"0",
    "hip":"0",
    "hot":"0",
    "m":"0",
    "mcc":"0",
    "p":"0",
    "pe":"0",
    "r":"0",
    "rt":"0",
    "s":"0",
    "sm":"0",
    "w":"0",
    "yc":"0",
    "loc_notes":"",
    "temp_notes":"",
    "notes":""
    }
  },
  {
    "type": "Feature",
    "geometry": {
       "type": "Point",
       "coordinates":  [ -122.276816,47.636098 ]
    },
    "properties": {
    "FIELD1":62,
    "state":"Washington",
    "city":"Seattle",
    "year":1975,
    "type":"Cruisy Area",
    "name":"Madison Beach",
    "address":"1900 43rd Ave E",
    "unit":"",
    "point":"0",
    "temp":"0",
    "loc":"0",
    "popular":"0",
    "byob":"0",
    "cruisy":"1",
    "c":"0",
    "d":"0",
    "e":"0",
    "ffa":"0",
    "g":"0",
    "h":"0",
    "hip":"0",
    "hot":"0",
    "m":"0",
    "mcc":"0",
    "p":"0",
    "pe":"0",
    "r":"0",
    "rt":"0",
    "s":"0",
    "sm":"0",
    "w":"0",
    "yc":"0",
    "loc_notes":"",
    "temp_notes":"",
    "notes":""
    }
  },
  {
    "type": "Feature",
    "geometry": {
       "type": "Point",
       "coordinates":  [ -122.332741,47.601731 ]
    },
    "properties": {
    "FIELD1":63,
    "state":"Washington",
    "city":"Seattle",
    "year":1975,
    "type":"Cruisy Area",
    "name":"Second & Yesler",
    "address":"173 Yesler Way",
    "unit":"",
    "point":"0",
    "temp":"0",
    "loc":"0",
    "popular":"0",
    "byob":"0",
    "cruisy":"1",
    "c":"0",
    "d":"0",
    "e":"0",
    "ffa":"0",
    "g":"0",
    "h":"0",
    "hip":"0",
    "hot":"0",
    "m":"0",
    "mcc":"0",
    "p":"0",
    "pe":"0",
    "r":"0",
    "rt":"0",
    "s":"0",
    "sm":"0",
    "w":"0",
    "yc":"0",
    "loc_notes":"",
    "temp_notes":"",
    "notes":""
    }
  },
  {
    "type": "Feature",
    "geometry": {
       "type": "Point",
       "coordinates":  [ -122.307085,47.656645 ]
    },
    "properties": {
    "FIELD1":64,
    "state":"Washington",
    "city":"Seattle",
    "year":1975,
    "type":"Cruisy Area",
    "name":"Smith Hall",
    "address":"1911 Skagit Lane",
    "unit":"",
    "point":"0",
    "temp":"0",
    "loc":"0",
    "popular":"0",
    "byob":"0",
    "cruisy":"1",
    "c":"0",
    "d":"0",
    "e":"0",
    "ffa":"0",
    "g":"0",
    "h":"0",
    "hip":"1",
    "hot":"0",
    "m":"0",
    "mcc":"0",
    "p":"0",
    "pe":"0",
    "r":"0",
    "rt":"0",
    "s":"0",
    "sm":"0",
    "w":"0",
    "yc":"0",
    "loc_notes":"",
    "temp_notes":"",
    "notes":""
    }
  },
  {
    "type": "Feature",
    "geometry": {
       "type": "Point",
       "coordinates":  [ -122.312782,47.632056 ]
    },
    "properties": {
    "FIELD1":65,
    "state":"Washington",
    "city":"Seattle",
    "year":1975,
    "type":"Cruisy Area",
    "name":"Volunteer Park",
    "address":"1247 15th Ave E",
    "unit":"",
    "point":"0",
    "temp":"0",
    "loc":"0",
    "popular":"0",
    "byob":"0",
    "cruisy":"1",
    "c":"0",
    "d":"0",
    "e":"0",
    "ffa":"0",
    "g":"0",
    "h":"0",
    "hip":"1",
    "hot":"0",
    "m":"0",
    "mcc":"0",
    "p":"0",
    "pe":"0",
    "r":"0",
    "rt":"0",
    "s":"0",
    "sm":"0",
    "w":"0",
    "yc":"0",
    "loc_notes":"",
    "temp_notes":"",
    "notes":""
    }
  }
]
}